timestamp(ms),RCOU.C2,VELE.v_aoa,RCOU.C1,RCOU.C3,RCOU.C4,IMU[0].GyrX,IMU[0].GyrY,IMU[0].GyrZ,IMU[0].AccX,IMU[0].AccY,IMU[0].AccZ,ARSP.Airspeed,BARO.Alt,XKF1[1].Roll,XKF1[1].Pitch,XKF1[1].Yaw,VELE.v_ssa,BARO.Temp
872561.4273017601,1524,1.1898651123046875,1546,1612,1472,-0.4183163046836853,0.08125878125429153,0.2629454731941223,1.7910046577453613,-0.14654093980789185,-9.91843032836914,16.58709716796875,82.7312240600586,3.07,8.99,239.34,1.0607070922851562,33.77
872661.4273017601,1524,1.2206817865371704,1534,1612,1472,-0.3659012019634247,0.11546776443719864,0.19482730329036713,1.8391413688659668,0.21304753422737122,-8.830245018005371,16.583202362060547,83.0240478515625,0.86,9.63,240.91,1.0705764293670654,33.77
872761.4273017601,1524,1.0807479619979858,1533,1612,1478,0.04654484614729881,0.07978886365890503,0.18047663569450378,1.9533441066741943,0.01700560748577118,-11.80217170715332,17.25723648071289,82.94685363769531,0.99,10.04,241.81,0.9077315926551819,33.76
872861.4273017601,1524,1.0967605113983154,1516,1612,1486,0.1560865193605423,0.06842830777168274,0.07626081258058548,1.8674226999282837,0.5512741208076477,-11.640069007873535,17.441213607788086,83.45263671875,1.78,10.45,242.58,0.9000274538993835,33.77
872961.4273017601,1525,1.0869414806365967,1510,1612,1486,0.018849479034543037,0.08815273642539978,-0.0669359490275383,2.110544204711914,0.3904774487018585,-13.080493927001953,17.323945999145508,83.48990631103516,1.96,10.86,242.48,0.8574783205986023,33.76
873061.4273017601,1539,1.1927353143692017,1500,1612,1497,0.3066870868206024,-0.011613101698458195,-0.1626092940568924,1.77647864818573,0.3340648114681244,-11.08774185180664,17.84878921508789,83.8785629272461,3.46,11.06,241.52,0.8734908699989319,33.76
873161.4273017601,1536,1.0568801164627075,1500,1612,1499,0.3963233232498169,0.05669190734624863,-0.23385727405548096,1.7264734506607056,0.5120072960853577,-12.051408767700195,18.407424926757812,84.48284912109375,4.78,11.37,240.5,0.8717284798622131,33.76
873261.4273017601,1528,1.1991806030273438,1500,1612,1523,0.1792270541191101,0.070406973361969,-0.3243873715400696,1.5834128856658936,-0.16751979291439056,-11.520458221435547,18.605804443359375,84.47752380371094,6.2,12.06,238.45,1.0470107793807983,33.76
873361.4273017601,1547,1.2637847661972046,1500,1612,1572,-0.02026866376399994,0.10490620136260986,-0.36907073855400085,1.5507009029388428,0.19671094417572021,-9.779382705688477,18.56675910949707,84.83956146240234,6,12.66,236.9,0.9324554204940796,33.76
873461.4273017601,1559,1.2238036394119263,1500,1612,1686,-0.1708499789237976,0.1456727385520935,-0.5284007787704468,1.631641149520874,-0.3677402138710022,-10.416839599609375,18.044288635253906,84.92740631103516,4.39,13.92,233.61,1.0643326044082642,33.76
873561.4273017601,1567,1.217559814453125,1500,1612,1716,-0.4062613248825073,0.10125872492790222,-0.6561993360519409,1.5410139560699463,-0.8736916184425354,-10.08867073059082,17.642744064331055,85.17764282226562,2.06,14.68,230.75,1.2061797380447388,33.76
873661.4273017601,1573,1.1624221801757812,1500,1612,1747,-0.6157251596450806,0.05316362902522087,-0.7529854774475098,1.6301876306533813,-1.4235678911209106,-10.685040473937988,17.5324764251709,85.33736419677734,-3.33,15.2,225.58,1.3203827142715454,33.76
873761.4273017601,1574,1.1146361827850342,1500,1612,1766,-0.8230812549591064,-0.01021431665867567,-0.7106839418411255,1.9695405960083008,-2.4851696491241455,-12.254168510437012,17.273820877075195,85.91236877441406,-7.93,15,222.09,1.515051245689392,33.76
873861.4273017601,1576,1.1547683477401733,1500,1612,1766,-1.1460838317871094,-0.09426110982894897,-0.5221327543258667,1.818534016609192,-2.6056153774261475,-10.590591430664062,16.83413314819336,86.63111877441406,-16.13,13.8,218.16,1.5788497924804688,33.76
873961.4273017601,1568,1.07354736328125,1500,1612,1760,-1.0108153820037842,-0.08849650621414185,-0.2895245850086212,1.9555858373641968,-2.3470346927642822,-11.608287811279297,16.655656814575195,86.83343505859375,-21.41,12.89,216.76,1.606292724609375,33.76
874061.4273017601,1558,1.0800933837890625,1500,1612,1754,-0.7461797595024109,-0.10811247676610947,-0.15003454685211182,2.0123391151428223,-1.8948572874069214,-11.175153732299805,16.075016021728516,86.9532241821289,-27.45,11.87,215.8,1.57300865650177,33.76
874161.4273017601,1557,1.1654937267303467,1500,1612,1755,-0.7078713178634644,-0.07004086673259735,-0.1766553670167923,1.9259493350982666,-1.2345627546310425,-9.75152587890625,15.741848945617676,87.26202392578125,-30.95,11.24,215.35,1.4400237798690796,33.76
874261.4273017601,1549,1.216099500656128,1500,1612,1745,-0.7994657158851624,0.017964733764529228,-0.3547694981098175,1.877471923828125,-1.2119216918945312,-9.153282165527344,15.62391471862793,87.52556610107422,-36.57,10.09,213.66,1.4578994512557983,33.76
874361.4273017601,1547,1.2143371105194092,1500,1612,1738,-0.7127735614776611,0.029919082298874855,-0.4297531843185425,1.881978154182434,-1.333597183227539,-8.240222930908203,15.176965713500977,88.20704650878906,-40.24,9.06,212.1,1.4476776123046875,33.76
874461.4273017601,1546,1.1967636346817017,1500,1612,1731,-0.7811429500579834,0.06771731376647949,-0.48452264070510864,1.966060996055603,-1.505517601966858,-8.381196022033691,14.705927848815918,88.43065643310547,-46.02,7.24,209.39,1.456842064857483,33.76
874561.4273017601,1552,1.1805999279022217,1500,1612,1738,-0.7618407607078552,0.055987998843193054,-0.4864216148853302,1.9885399341583252,-1.4588769674301147,-8.511505126953125,14.8281888961792,88.67556762695312,-49.93,5.8,207.68,1.4545257091522217,33.76
874661.4273017601,1523,1.2016983032226562,1500,1612,1654,-0.7259350419044495,0.07650987803936005,-0.4884287118911743,1.879704475402832,-1.2152541875839233,-8.393988609313965,14.395121574401855,88.63031005859375,-55.25,3.54,205.23,1.434484839439392,33.76
874761.4273017601,1523,1.2491317987442017,1500,1612,1605,-0.6925894021987915,0.14894291758537292,-0.47180700302124023,1.8745641708374023,-1.0082461833953857,-7.9006853103637695,15.4190673828125,89.17869567871094,-58.71,2.09,203.51,1.4240615367889404,33.76
874861.4273017601,1523,1.2700790166854858,1500,1612,1488,-0.6844711303710938,0.1878081113100052,-0.32055163383483887,1.6904374361038208,-1.2908636331558228,-7.994265556335449,15.594953536987305,89.12278747558594,-63.44,0.61,201.18,1.3586013317108154,33.76
874961.4273017601,1523,1.110406517982483,1500,1612,1421,-0.7407709956169128,0.23800939321517944,-0.14343498647212982,2.009402275085449,-1.4803493022918701,-11.22525405883789,15.293671607971191,89.00033569335938,-66.78,0.34,199.83,1.351048231124878,33.76
875061.4273017601,1523,1.2102080583572388,1500,1612,1264,-0.38910046219825745,0.13186612725257874,0.1613379865884781,1.5026171207427979,-0.6955710053443909,-7.775611400604248,15.940032005310059,88.60102844238281,-70.43,1.24,198.91,1.2815093994140625,33.76
875161.4273017601,1523,1.2294937372207642,1500,1612,1239,-0.2565644085407257,0.3027571439743042,0.4128565490245819,1.3610131740570068,0.20236264169216156,-7.539118766784668,16.601821899414062,89.10149383544922,-71.92,3.12,198.45,1.0806976556777954,33.76
875261.4273017601,1508,1.3422867059707642,1500,1612,1199,0.16149526834487915,0.41055387258529663,0.5491163730621338,1.357553243637085,1.0273076295852661,-7.69233512878418,17.21861457824707,89.29049682617188,-71.83,7.41,197.16,0.90234375,33.76
875361.4273017601,1500,1.253411889076233,1500,1612,1182,0.47065556049346924,0.47024232149124146,0.5485700368881226,1.5968691110610962,1.815733551979065,-9.323287010192871,16.787555694580078,88.87788391113281,-70.28,10.56,196.09,0.6547027230262756,33.76
875461.4273017601,1483,1.110809326171875,1500,1612,1168,0.8289642930030823,0.40831032395362854,0.4126959443092346,2.02290678024292,2.7555325031280518,-11.445722579956055,16.70547866821289,88.79535675048828,-65.6,14.63,194.57,0.372720330953598,33.75
875561.4273017601,1490,1.042932152748108,1500,1612,1174,1.1551576852798462,0.17692828178405762,0.09334911406040192,2.3263657093048096,2.812696695327759,-12.786872863769531,16.4681339263916,88.05265045166016,-60.81,15.89,193.96,0.315216064453125,33.76
875661.4273017601,1496,0.9608550667762756,1500,1612,1189,1.3262438774108887,-0.016039779409766197,-0.21131141483783722,2.509291887283325,2.725999593734741,-13.779739379882812,16.207958221435547,87.6533432006836,-52.36,15.27,193.18,0.24451903998851776,33.76
875761.4273017601,1496,0.9283767342567444,1500,1612,1196,1.3115524053573608,-0.12966537475585938,-0.44687891006469727,2.4350996017456055,2.1406803131103516,-14.228280067443848,16.68714141845703,87.07301330566406,-46.58,13.59,192.32,0.20176848769187927,33.76
875861.4273017601,1500,1.011662244796753,1500,1612,1197,1.1134788990020752,-0.11920832097530365,-0.6177672147750854,2.1306447982788086,1.7496414184570312,-13.585369110107422,17.01776123046875,87.44303894042969,-39.07,10.25,189.83,0.3395370543003082,33.76
875961.4273017601,1500,1.05134117603302,1500,1612,1197,0.8881232738494873,0.022764356806874275,-0.6234282851219177,1.9398436546325684,0.9013923406600952,-13.583477020263672,17.523670196533203,86.8014907836914,-35.11,8.5,187.44,0.4990081787109375,33.75
876061.4273017601,1500,1.0289336442947388,1500,1612,1191,0.7411584854125977,0.10337817668914795,-0.5077753663063049,2.0659751892089844,0.8987436294555664,-14.600979804992676,17.994953155517578,86.01884460449219,-30.28,7.1,183.88,0.518444836139679,33.75
876161.4273017601,1500,1.0280272960662842,1500,1612,1189,0.651285707950592,0.14611345529556274,-0.357038676738739,1.957338809967041,0.5721381902694702,-14.613824844360352,18.047170639038086,85.61421966552734,-27.48,6.8,181.94,0.6200591921806335,33.75
876261.4273017601,1500,1.0621672868728638,1500,1612,1184,0.5893105268478394,0.16153621673583984,-0.18555888533592224,1.92281174659729,0.6811303496360779,-14.830310821533203,17.789810180664062,85.64616394042969,-23.59,7.08,180.02,0.6716216802597046,33.75
876361.4273017601,1500,1.0491256713867188,1500,1612,1186,0.6186836957931519,0.17180515825748444,-0.016785260289907455,1.9877409934997559,0.8061171770095825,-15.371755599975586,18.093605041503906,85.35067749023438,-20.98,7.67,179.47,0.6761031746864319,33.75
876461.4273017601,1503,1.0023467540740967,1500,1612,1193,0.7057940363883972,0.133865624666214,0.07562138140201569,2.0754547119140625,0.9487091302871704,-16.04573631286621,17.885303497314453,85.36398315429688,-16.3,8.78,179.52,0.6521850228309631,33.75
876561.4273017601,1504,1.0335159301757812,1500,1612,1193,0.7878886461257935,0.09482694417238235,0.12464414536952972,2.078089952468872,1.1347386837005615,-15.587052345275879,17.775543212890625,85.41989135742188,-12.79,9.37,179.91,0.6297774910926819,33.75
876661.4273017601,1515,1.060455322265625,1500,1612,1203,0.8624824285507202,0.0729941725730896,0.13942879438400269,1.9938842058181763,0.9284786581993103,-14.671464920043945,17.873676300048828,85.48909759521484,-6.8,10.01,180.75,0.6295760869979858,33.75
876761.4273017601,1520,1.0566283464431763,1500,1612,1222,0.6240096092224121,0.09380622208118439,0.12431101500988007,1.9746270179748535,0.8610443472862244,-14.41789722442627,17.690881729125977,85.70738983154297,-3.47,10.39,181.33,0.6247420907020569,33.75
876861.4273017601,1523,1.0569305419921875,1500,1612,1298,0.7225507497787476,0.042038314044475555,0.11859507858753204,2.0662732124328613,1.013951063156128,-13.912531852722168,17.630035400390625,85.40924072265625,1.67,10.77,182.15,0.6343093514442444,33.75
876961.4273017601,1523,1.0816543102264404,1500,1612,1345,0.7201645374298096,0.05718277394771576,0.058769021183252335,1.8936762809753418,0.8648131489753723,-13.9766206741333,17.98543357849121,85.79257202148438,5.1,10.9,182.54,0.6605941653251648,33.75
877061.4273017601,1523,0.9329589605331421,1500,1612,1507,0.43976011872291565,0.05845193564891815,-0.16192689538002014,2.6566872596740723,1.0116206407546997,-16.088598251342773,17.86297035217285,85.582275390625,8.47,11.46,181.95,0.5950332283973694,33.75
877161.4273017601,1523,1.071936011314392,1500,1612,1547,0.4180768132209778,-0.049805812537670135,-0.3816305696964264,2.256143093109131,0.8774004578590393,-14.390523910522461,18.31574249267578,85.582275390625,10.07,11.62,180.41,0.6516311764717102,33.75
877261.4273017601,1521,1.0059722661972046,1500,1612,1648,0.28777751326560974,0.050410546362400055,-0.6009374260902405,2.2162344455718994,0.2794976830482483,-14.183252334594727,17.94073486328125,86.04280853271484,11.48,12.58,176.69,0.7208175659179688,33.75
877361.4273017601,1521,1.1992813348770142,1500,1612,1719,-0.07479585707187653,0.0628589317202568,-0.8560824394226074,1.6340296268463135,0.22048576176166534,-10.605612754821777,19.337936401367188,86.76422119140625,10.81,13.55,173.13,0.8097427487373352,33.75
877461.4273017601,1523,1.2454055547714233,1500,1612,1827,-0.2877391278743744,0.15927909314632416,-1.1194676160812378,1.1516380310058594,-0.5270197987556458,-8.915384292602539,18.876008987426758,86.64974975585938,7.25,15.84,165.94,1.119470238685608,33.75
877561.4273017601,1523,1.2762222290039062,1500,1612,1846,-0.728948175907135,0.23071767389774323,-1.2455697059631348,1.1774691343307495,-2.1967713832855225,-9.607330322265625,18.820289611816406,87.42440795898438,2.69,17.48,160.2,1.4478789567947388,33.75
877661.4273017601,1521,1.0725905895233154,1500,1612,1871,-1.3004776239395142,0.22840850055217743,-1.0132124423980713,2.042867422103882,-3.0632882118225098,-14.59500503540039,17.470937728881836,88.04199981689453,-7.62,19.01,152.25,1.6527694463729858,33.75
877761.4273017601,1521,0.9163925051689148,1500,1612,1852,-1.1927595138549805,-0.003110082820057869,-0.6207939386367798,2.7681167125701904,-3.218998432159424,-14.52167797088623,15.57265567779541,87.52290344238281,-14.43,18.81,148.77,1.6608763933181763,33.75
877861.4273017601,1500,0.9284271001815796,1500,1612,1682,-1.2930841445922852,-0.09779217094182968,-0.3609495460987091,2.401343584060669,-3.1587748527526855,-12.105950355529785,14.543850898742676,88.47325134277344,-24.03,17.51,146.03,1.7925018072128296,33.75
877961.4273017601,1497,1.0797911882400513,1500,1612,1553,-1.1220781803131104,-0.06998620927333832,-0.0455109179019928,2.2516634464263916,-2.46480655670166,-11.449167251586914,14.441292762756348,88.32949829101562,-29.79,16.93,145.67,1.6653579473495483,33.75
878061.4273017601,1519,1.1115142107009888,1500,1612,1421,-1.0656485557556152,-0.03156464919447899,0.1808311939239502,2.1189451217651367,-1.8144257068634033,-11.891246795654297,14.377394676208496,88.72880554199219,-37.02,17.16,146.65,1.43805992603302,33.75
878161.4273017601,1520,1.1327636241912842,1500,1612,1345,-1.0445051193237305,-0.032795246690511703,0.3633054196834564,2.02361798286438,-1.7227414846420288,-10.284442901611328,14.575830459594727,89.3863296508789,-41.63,17.94,147.84,1.5554351806640625,33.75
878261.4273017601,1523,1.2635833024978638,1500,1612,1114,-0.7451528906822205,0.02672392874956131,0.7374120950698853,1.7675564289093018,-0.7240220904350281,-6.918904781341553,13.379055976867676,89.90010833740234,-46.27,20.86,151.27,1.3693267107009888,33.75
878361.4273017601,1523,0.9318512082099915,1500,1612,1100,0.0662904605269432,0.22706684470176697,1.0414199829101562,2.284069061279297,0.6232947111129761,-8.998611450195312,13.008489608764648,90.00392150878906,-46.15,24.57,154.15,0.8141235113143921,33.75
878461.4273017601,1523,1.3941513299942017,1500,1612,1100,0.24700067937374115,0.2403956800699234,0.9832376837730408,2.2220776081085205,1.5311757326126099,-7.639955997467041,12.767988204956055,90.88240051269531,-42.31,30.64,158.62,0.6346114873886108,33.75
878561.4273017601,1521,1.100335717201233,1500,1612,1100,0.7469280362129211,0.29082056879997253,0.7547581195831299,2.8856327533721924,2.233741283416748,-9.723311424255371,11.991903305053711,91.167236328125,-38.42,34.13,161.09,0.46658018231391907,33.75
878661.4273017601,1520,0.8853240609169006,1500,1612,1100,1.0448702573776245,0.01335511077195406,0.4800639748573303,3.247694253921509,2.3170316219329834,-10.380023956298828,12.108942985534668,91.38818359375,-28.98,36.73,164.72,0.053375244140625,33.74
878761.4273017601,1521,0.738189697265625,1500,1612,1104,0.8756622672080994,-0.2457100749015808,0.1289484202861786,3.68615460395813,2.5984349250793457,-10.662400245666504,12.42834186553955,91.86203002929688,-23.71,36.31,166.41,0.011782837100327015,33.75
878861.4273017601,1523,0.6269577145576477,1500,1612,1115,1.1358973979949951,-0.4771451950073242,-0.17276687920093536,3.8196260929107666,2.2662746906280518,-11.289219856262207,11.54747486114502,91.5984878540039,-16.16,33.47,166.6,0.04063567891716957,33.74
878961.4273017601,1523,0.6097366213798523,1500,1612,1122,1.2153502702713013,-0.6330897212028503,-0.34742942452430725,3.533677339553833,2.207731008529663,-9.906952857971191,12.640114784240723,91.97916412353516,-11.31,30.55,165.55,0.03826904296875,33.74
879061.4273017601,1523,0.977673351764679,1500,1612,1224,1.054695963859558,-0.6891410946846008,-0.5043618679046631,3.1327316761016846,2.107245922088623,-7.450963497161865,11.641440391540527,92.5089111328125,-5.18,25.44,162.52,0.0024169920943677425,33.75
879161.4273017601,1523,0.8996246457099915,1500,1612,1326,0.9653195738792419,-0.5157798528671265,-0.687131404876709,3.1306421756744385,1.888901710510254,-7.584778308868408,11.949260711669922,92.88957977294922,-2.15,22.62,159.33,0.02321319468319416,33.74
879261.4273017601,1523,0.9723358154296875,1500,1612,1508,0.6434850096702576,-0.33344724774360657,-0.9040876626968384,2.971376895904541,1.0264127254486084,-7.835272789001465,12.93505573272705,93.28622436523438,0.44,20.15,153.02,0.170146182179451,33.74
879361.4273017601,1523,0.949475109577179,1500,1612,1488,0.32726335525512695,-0.11163333803415298,-1.0245946645736694,2.822326183319092,0.5593817234039307,-7.63215446472168,13.572789192199707,94.20196533203125,0.34,19.5,147.99,0.3319335877895355,33.74
879461.4273017601,1523,0.9564743041992188,1500,1612,1500,0.31362080574035645,-0.02084958553314209,-1.0078099966049194,2.9651944637298584,0.06635430455207825,-8.091373443603516,12.920533180236816,93.25161743164062,-0.33,19.37,140.43,0.5981552004814148,33.74
879561.4273017601,1523,0.9239456057548523,1500,1612,1500,0.16638019680976868,-0.03878527879714966,-0.9441431760787964,3.069880485534668,-0.7519047260284424,-8.727109909057617,12.37771224975586,93.18506622314453,-0.92,19.28,135.71,0.9112563729286194,33.74
879661.4273017601,1523,0.9276214241981506,1500,1612,1500,-0.17284519970417023,-0.0740053579211235,-0.8053263425827026,3.0435657501220703,-0.9282136559486389,-8.357117652893066,11.87038516998291,93.35543823242188,-3.64,18.73,129.45,0.985729992389679,33.74
879761.4273017601,1523,0.9279235601425171,1500,1612,1500,-0.311697781085968,-0.11331181973218918,-0.6417325735092163,3.0703399181365967,-1.2334331274032593,-8.100373268127441,11.237525939941406,93.46723937988281,-6.04,18.04,126.14,1.2226455211639404,33.74
879861.4273017601,1523,0.9628692269325256,1500,1612,1500,-0.38273486495018005,-0.1567719429731369,-0.4357875883579254,2.9975533485412598,-1.1212058067321777,-7.48603630065918,10.924997329711914,93.69883728027344,-9.62,16.72,122.7,1.2661010026931763,33.74
879961.4273017601,1523,1.0214309692382812,1500,1612,1500,-0.4193015694618225,-0.15031039714813232,-0.3026779890060425,3.0868163108825684,-0.7647383809089661,-7.730989933013916,9.551368713378906,93.97303009033203,-12.04,15.8,121.22,1.2479232549667358,33.74
880061.4273017601,1523,0.9016388058662415,1500,1612,1500,-0.4523965120315552,-0.14154796302318573,-0.2660895884037018,3.3041412830352783,-0.8952444791793823,-8.334548950195312,10.025691986083984,94.06620025634766,-15.39,14.47,119.53,1.213481068611145,33.74
880161.4273017601,1523,0.8997756838798523,1500,1612,1500,-0.3811846375465393,-0.17836803197860718,-0.2281225621700287,3.2419352531433105,-0.4616367816925049,-7.840170860290527,10.921463012695312,94.27650451660156,-17.79,13.49,118.6,1.1760177612304688,33.74
880261.4273017601,1523,1.023797631263733,1500,1612,1500,-0.29767686128616333,-0.14873778820037842,-0.21330705285072327,3.056990146636963,-0.42531976103782654,-8.231138229370117,12.098621368408203,94.8195571899414,-20.08,12.01,117.53,1.127325415611267,33.74
880361.4273017601,1523,0.8833099007606506,1500,1612,1500,-0.21788431704044342,-0.09909757971763611,-0.231837660074234,3.092329740524292,-0.4949266314506531,-8.795801162719727,11.323437690734863,94.872802734375,-21.26,11.21,116.75,1.0058715343475342,33.73
880461.4273017601,1523,0.9251037240028381,1500,1612,1500,-0.16914142668247223,-0.09392809867858887,-0.26764750480651855,3.061018228530884,-0.3691449761390686,-8.329058647155762,11.474703788757324,94.9393539428711,-23.04,9.96,115.3,0.973846435546875,33.74
880561.4273017601,1523,1.0568801164627075,1500,1612,1500,-0.0972275659441948,-0.06197504326701164,-0.29888179898262024,2.995654582977295,-0.2319870889186859,-7.705092430114746,11.711004257202148,95.3173599243164,-23.8,9.18,114.23,0.909393310546875,33.74
880661.4273017601,1523,1.0909698009490967,1500,1612,1500,-0.0014882833929732442,-0.07087919861078262,-0.33097055554389954,2.88244366645813,-0.20689107477664948,-7.496387004852295,11.694823265075684,95.41319274902344,-24.36,7.89,112.34,0.9422240853309631,33.74
880761.4273017601,1523,1.0379973649978638,1500,1612,1500,-0.302636057138443,-0.01187207642942667,-0.40805289149284363,3.0086960792541504,-0.6774393320083618,-9.219407081604004,11.781007766723633,95.0777816772461,-25.31,7.02,110.83,0.980090320110321,33.74
880861.4273017601,1523,0.8686569333076477,1500,1612,1500,-0.5164827704429626,-0.06978718191385269,-0.4446891248226166,3.239353895187378,-0.7771148085594177,-10.187407493591309,11.618473052978516,95.03784942626953,-29.02,5.49,108.26,0.990765392780304,33.74
880961.4273017601,1523,0.8614562749862671,1500,1612,1500,-0.437644362449646,-0.12802478671073914,-0.43475866317749023,3.165743350982666,-1.0562238693237305,-10.563031196594238,11.653135299682617,94.63321685791016,-31.44,4.07,106.72,1.2028061151504517,33.73
881061.4273017601,1523,0.877972424030304,1500,1612,1500,-0.2981718182563782,-0.1689579039812088,-0.3623751103878021,2.9391109943389893,-1.058588981628418,-10.31688117980957,11.99014663696289,94.87812805175781,-33.84,1.78,105.07,1.2299972772598267,33.73
881161.4273017601,1523,0.9843200445175171,1500,1612,1500,-0.3398599624633789,-0.13370729982852936,-0.3096632957458496,2.800949811935425,-0.8562021255493164,-9.415142059326172,12.039613723754883,94.8009262084961,-35.3,0.43,104.19,1.2226455211639404,33.74
881261.4273017601,1523,1.0555709600448608,1500,1612,1500,-0.23841285705566406,-0.060825321823358536,-0.2598133385181427,2.6184940338134766,-0.6669941544532776,-8.698531150817871,13.028968811035156,95.04317474365234,-37.14,-1.1,103,1.2053741216659546,33.74
881361.4273017601,1523,1.1045653820037842,1500,1612,1500,-0.22154714167118073,0.00015509584045503289,-0.23346303403377533,2.477782726287842,-0.3040204644203186,-8.088662147521973,13.442708969116211,95.3732681274414,-38.25,-1.81,102.18,1.123297095298767,33.73
881461.4273017601,1523,1.1652923822402954,1500,1612,1500,-0.12490122765302658,0.0514814555644989,-0.2491859495639801,2.33551287651062,-0.13239336013793945,-7.982620716094971,13.776274681091309,95.7459487915039,-39.24,-2.56,100.73,1.0350768566131592,33.73
881561.4273017601,1523,1.1904189586639404,1500,1612,1500,-0.11909929662942886,0.12802718579769135,-0.3061305284500122,2.303598403930664,0.16967660188674927,-8.12596321105957,14.316193580627441,95.77523040771484,-39.7,-2.98,99.42,1.0020949840545654,33.73
881661.4273017601,1523,1.0787841081619263,1500,1612,1500,-0.123155377805233,0.16221332550048828,-0.3632110357284546,2.327277660369873,0.22940963506698608,-9.622570991516113,14.938724517822266,95.42650604248047,-40.61,-3.63,96.96,0.9394546151161194,33.73
881761.4273017601,1523,1.056427001953125,1500,1612,1500,-0.21650099754333496,0.1392442286014557,-0.4130319058895111,2.396613121032715,0.012737257406115532,-11.218708038330078,14.987259864807129,94.98460388183594,-41.44,-4.24,95.11,0.9312469363212585,33.73
881861.4273017601,1523,1.0706771612167358,1500,1612,1500,-0.2474202960729599,0.12082431465387344,-0.4614054262638092,2.2050979137420654,-0.027239447459578514,-10.998088836669922,15.260664939880371,94.64120483398438,-42.86,-5.57,92.24,0.91644287109375,33.73
881961.4273017601,1523,1.0754104852676392,1500,1612,1500,-0.373652845621109,0.1814354956150055,-0.5084723234176636,2.140589714050293,-0.24773316085338593,-10.971439361572266,17.019662857055664,94.65717315673828,-44.19,-6.54,90.07,0.9604018926620483,33.73
882061.4273017601,1523,1.0465072393417358,1500,1612,1500,-0.33030232787132263,0.1477123349905014,-0.4811917245388031,1.9404425621032715,-0.07795876264572144,-12.263053894042969,17.479480743408203,94.4442138671875,-46.18,-8.03,86.89,0.9590926766395569,33.73
882161.4273017601,1523,1.0628219842910767,1500,1612,1500,-0.08562281727790833,0.14452417194843292,-0.41164398193359375,1.5131717920303345,0.24087059497833252,-10.803750991821289,18.557050704956055,94.36168670654297,-46.75,-9.02,85.01,0.8999770879745483,33.73
882261.4273017601,1523,1.2436431646347046,1500,1612,1500,0.15798407793045044,0.22294114530086517,-0.40766602754592896,1.146530032157898,0.3687637448310852,-10.25429630279541,19.05242919921875,94.5293960571289,-45.99,-9.95,82.08,0.9637252688407898,33.73
882361.4273017601,1523,1.3673125505447388,1500,1612,1500,0.36019888520240784,0.2808871269226074,-0.44259947538375854,0.8399973511695862,0.2842767834663391,-7.886499881744385,19.098989486694336,94.19930267333984,-44.48,-10.53,79.79,1.001591444015503,33.73
882461.4273017601,1523,1.276524305343628,1500,1612,1500,0.3515411913394928,0.293496698141098,-0.4008362591266632,1.0877225399017334,-0.43264514207839966,-12.040901184082031,19.259506225585938,93.29154968261719,-41.12,-10.83,76.26,1.0173522233963013,33.73
882561.4273017601,1523,1.3668594360351562,1500,1612,1500,-0.18179042637348175,0.2841586172580719,-0.4073096215724945,0.7907568216323853,0.171855166554451,-8.726747512817383,20.153972625732422,93.66157531738281,-40.92,-11.09,74.02,0.9903121590614319,33.73
882661.4273017601,1523,1.1523009538650513,1500,1612,1500,-0.27027225494384766,0.37053972482681274,-0.4428379237651825,1.0440160036087036,0.24440792202949524,-12.05037784576416,20.26174545288086,93.27823638916016,-42.09,-11.11,70.2,0.9747527837753296,33.73
882761.4273017601,1523,1.2288894653320312,1500,1612,1500,-0.11599121987819672,0.2849574685096741,-0.4478108584880829,0.964224100112915,-0.21584272384643555,-12.831419944763184,20.101085662841797,92.19212341308594,-42.55,-11.39,67.74,0.9978652596473694,33.73
882861.4273017601,1523,1.288609266281128,1500,1612,1500,0.014910374768078327,0.2724478840827942,-0.39138877391815186,0.5103349089622498,-0.17376627027988434,-10.963109016418457,21.079647064208984,92.0137710571289,-41.93,-11.86,64.33,1.04932701587677,33.73
882961.4273017601,1523,1.2957595586776733,1500,1612,1500,-0.08126740157604218,0.3321228325366974,-0.3674980700016022,0.5885636806488037,-0.21712182462215424,-11.219667434692383,20.818580627441406,91.96052551269531,-41.79,-11.84,62.08,0.982708752155304,33.73
883061.4273017601,1523,1.2538650035858154,1500,1612,1500,-0.28165528178215027,0.3765280544757843,-0.387922078371048,0.5656148195266724,-0.24133069813251495,-12.50070571899414,21.285293579101562,91.28703308105469,-43.15,-11.62,58.35,1.0700225830078125,33.73
883161.4273017601,1523,1.1599547863006592,1500,1612,1500,-0.1966152787208557,0.348324716091156,-0.3662462532520294,0.777940034866333,-0.3332732319831848,-14.717690467834473,20.872314453125,90.6028823852539,-43.8,-11.55,56,1.132914662361145,33.73
883261.4273017601,1523,1.2107620239257812,1500,1612,1500,0.08740931749343872,0.2679145038127899,-0.28926923871040344,0.5948747396469116,0.08573181182146072,-15.059009552001953,21.869970321655273,90.31005859375,-43.23,-11.59,53.13,0.9713287353515625,33.72
883361.4273017601,1523,1.1928359270095825,1500,1612,1500,-0.018755683675408363,0.31499922275543213,-0.3657350540161133,0.416471928358078,0.20034992694854736,-15.692808151245117,23.010040283203125,90.089111328125,-42.75,-11.59,51.06,0.9743499755859375,33.72
883461.4273017601,1523,1.1852325201034546,1500,1612,1500,-0.17771968245506287,0.3381737172603607,-0.4276329576969147,0.34584078192710876,0.011144875548779964,-16.687519073486328,23.051227569580078,89.27719116210938,-43.12,-11.76,47.41,1.0293365716934204,33.72
883561.4273017601,1523,1.3909789323806763,1500,1612,1500,0.12471265345811844,0.28394272923469543,-0.3713096082210541,-0.01783735118806362,-0.8907679319381714,-12.930885314941406,23.016254425048828,89.06422424316406,-42.06,-12.01,45.27,1.1408706903457642,33.73
883661.4273017601,1523,1.2490813732147217,1500,1612,1500,-0.677034854888916,0.3985029458999634,-0.341047078371048,0.3279169797897339,-1.0049928426742554,-14.853559494018555,22.499250411987305,88.57707214355469,-44.58,-11.54,41.66,1.16614830493927,33.72
883761.4273017601,1523,1.1779311895370483,1500,1612,1500,-0.01794002577662468,0.23452173173427582,-0.17155739665031433,0.3721686899662018,-0.3895147740840912,-16.139999389648438,22.346261978149414,88.03667449951172,-45.55,-11.31,40,1.1447982788085938,33.72
883861.4273017601,1523,1.2072372436523438,1500,1612,1500,0.10004366934299469,0.2863214612007141,-0.16907715797424316,0.4133106470108032,-0.23817457258701324,-17.634302139282227,22.30942153930664,87.379150390625,-44.07,-10.67,37.96,1.0321060419082642,33.72
883961.4273017601,1523,1.2348312139511108,1500,1612,1500,-0.10346394032239914,0.32965338230133057,-0.2751528024673462,0.28407996892929077,0.13535961508750916,-15.003436088562012,23.088159561157227,87.6027603149414,-44.2,-10.37,36.17,0.9511871337890625,33.72
884061.4273017601,1523,1.2128769159317017,1500,1612,1500,0.029659142717719078,0.3452308475971222,-0.36887863278388977,0.2733999490737915,-0.105316162109375,-15.051094055175781,22.27833366394043,87.11560821533203,-44.02,-10.25,32.81,1.0324081182479858,33.72
884161.4273017601,1523,1.3040176630020142,1500,1612,1500,-0.005088150501251221,0.3789493441581726,-0.3773461580276489,0.04297368973493576,-0.26348161697387695,-11.493528366088867,22.18025779724121,87.57347869873047,-43.63,-10.27,30.51,1.0418243408203125,33.72
884261.4273017601,1523,1.2792434692382812,1500,1612,1500,-0.20798860490322113,0.37428510189056396,-0.36306503415107727,-0.10704132169485092,-0.40231478214263916,-13.864297866821289,23.316204071044922,87.13158416748047,-44.2,-9.93,26.7,1.1105071306228638,33.72
884361.4273017601,1523,1.3805557489395142,1500,1612,1500,-0.25936266779899597,0.3908061683177948,-0.31367048621177673,-0.47565221786499023,-0.4345029890537262,-11.894888877868652,23.6678466796875,86.86005401611328,-45.07,-9.6,24.4,1.1751617193222046,33.72
884461.4273017601,1523,1.3481780290603638,1500,1612,1500,-0.031573813408613205,0.4893887937068939,-0.21828842163085938,-0.5086604952812195,-1.0724408626556396,-12.274112701416016,24.674875259399414,86.78551483154297,-45.41,-8.5,21,1.2073882818222046,33.72
884561.4273017601,1523,1.1679611206054688,1500,1612,1500,0.34440186619758606,0.2578813433647156,-0.08850404620170593,-0.08305620402097702,-0.08852687478065491,-15.235007286071777,24.130685806274414,85.50773620605469,-45.52,-7.61,19.37,1.1292892694473267,33.72
884661.4273017601,1523,1.275517225265503,1500,1612,1500,0.1371580809354782,0.43295636773109436,-0.06896764039993286,-0.31722575426101685,-0.579409122467041,-14.303228378295898,23.984519958496094,85.8191909790039,-43.51,-6.03,17.26,1.2121719121932983,33.72
884761.4273017601,1523,1.124505639076233,1500,1612,1500,0.3296978771686554,0.31628045439720154,-0.07297362387180328,0.5702229738235474,0.3975091278553009,-21.968957901000977,23.75016975402832,84.6532211303711,-42.27,-4.91,15.98,0.9560714364051819,33.72
884861.4273017601,1523,1.2868468761444092,1500,1612,1500,0.3697884678840637,0.2146710753440857,-0.22445261478424072,0.14413663744926453,0.4544444978237152,-14.66843318939209,24.419198989868164,84.67717742919922,-39.45,-4.45,13.98,1.0450973510742188,33.72
884961.4273017601,1523,1.2085464000701904,1500,1612,1500,0.8687639832496643,0.24182018637657166,-0.23519891500473022,-0.21235878765583038,1.894217848777771,-12.759084701538086,25.23790168762207,85.1510238647461,-36.55,-4.25,12.45,0.6862243413925171,33.72
885061.4273017601,1523,1.1503875255584717,1500,1612,1500,0.4957028925418854,0.3608989119529724,-0.49571549892425537,-0.08771537989377975,0.3791665732860565,-14.640483856201172,25.345861434936523,84.91143798828125,-32.12,-3.88,8.77,0.9586898684501648,33.72
885161.4273017601,1523,1.2437942028045654,1500,1612,1500,0.28039661049842834,0.344253808259964,-0.5305705070495605,-0.21076911687850952,-0.30894747376441956,-14.30166244506836,24.46588134765625,84.24592590332031,-30.52,-3.78,5.91,1.0361846685409546,33.72
885261.4273017601,1523,1.2112655639648438,1500,1612,1500,-0.12195811420679092,0.33295735716819763,-0.47348690032958984,-0.1702139675617218,-0.5615033507347107,-17.06928062438965,24.44111442565918,84.00367736816406,-30.51,-3.3,1.83,1.1105575561523438,33.72
885361.4273017601,1523,1.16413414478302,1500,1612,1500,0.3534426987171173,0.23213991522789001,-0.30610525608062744,0.04169870540499687,-0.5354509353637695,-16.191181182861328,23.596717834472656,83.3701171875,-30,-3.02,359.77,1.1221389770507812,33.72
885461.4273017601,1523,1.397373914718628,1500,1612,1500,0.5828224420547485,0.27624988555908203,-0.21196675300598145,-0.5916731953620911,-1.4441218376159668,-12.910760879516602,23.956409454345703,83.91849517822266,-25.81,-2.23,357.57,1.3477249145507812,33.72
885561.4273017601,1523,1.182714819908142,1500,1612,1500,1.0010989904403687,0.296551376581192,0.007604427635669708,0.45424628257751465,-0.9942086338996887,-19.749980926513672,22.73924446105957,82.89360809326172,-21.89,-1.01,356.76,1.183872938156128,33.72
885661.4273017601,1523,1.313232421875,1500,1612,1500,-0.2502695918083191,0.21241214871406555,-0.0742214247584343,-0.005713445600122213,-0.4482535719871521,-14.264420509338379,23.099807739257812,83.591064453125,-20.52,0.18,356,1.0696197748184204,33.71
885761.4273017601,1523,1.3508468866348267,1500,1612,1500,-0.22966359555721283,0.3714137375354767,-0.11875305324792862,-0.26298531889915466,-0.10381780564785004,-14.87612533569336,24.282718658447266,84.23262023925781,-21.54,1.4,355.06,1.0496292114257812,33.71
885861.4273017601,1523,1.1926848888397217,1500,1612,1500,-0.23476845026016235,0.3690563142299652,-0.16832363605499268,0.0877954363822937,0.02314564771950245,-17.17753028869629,23.92438507080078,83.8705825805664,-23.43,3.43,353.2,1.053002953529358,33.71
885961.4273017601,1523,1.2228469848632812,1500,1612,1500,0.0794166699051857,0.28326934576034546,-0.1786692589521408,0.010958695784211159,-0.20772293210029602,-16.76451873779297,23.663772583007812,83.99569702148438,-23.42,4.38,351.98,1.0591964721679688,33.71
886061.4273017601,1523,1.2498871088027954,1500,1612,1500,-0.16956888139247894,0.31601497530937195,-0.21507933735847473,0.10133307427167892,-0.2599656283855438,-16.669301986694336,23.96730613708496,83.97705841064453,-24.17,5.82,349.9,1.0626708269119263,33.71
886161.4273017601,1523,1.207489013671875,1500,1612,1500,-0.1261804848909378,0.2923247814178467,-0.22859276831150055,0.3306642472743988,-0.2826222777366638,-17.475778579711914,23.525192260742188,84.21398162841797,-24.94,6.74,348.41,1.057836890220642,33.71
886261.4273017601,1523,1.2283859252929688,1500,1612,1500,-0.3523062467575073,0.35526788234710693,-0.28132739663124084,0.3350116014480591,-0.3388022780418396,-17.91797637939453,23.439624786376953,84.86618041992188,-27.15,8.05,345.88,1.024150013923645,33.71
886361.4273017601,1523,1.2006912231445312,1500,1612,1500,-0.5187109112739563,0.3039560914039612,-0.31646668910980225,0.25761711597442627,-0.8116809725761414,-16.023210525512695,23.128131866455078,84.97266387939453,-30,8.77,343.84,1.2252639532089233,33.71
886461.4273017601,1523,1.371038794517517,1500,1612,1500,-0.39807558059692383,0.27987024188041687,-0.21056890487670898,0.0063112350180745125,-0.6171371936798096,-11.142638206481934,22.86430549621582,85.82451629638672,-33.62,9.59,341.46,1.2118194103240967,33.71
886561.4273017601,1523,1.2711868286132812,1500,1612,1500,-0.8563694357872009,0.4600412845611572,-0.15417902171611786,0.370880126953125,-0.22675518691539764,-11.276179313659668,21.33063507080078,86.52729797363281,-37.67,10.82,339.74,1.130548119544983,33.71
886661.4273017601,1523,1.2611160278320312,1500,1612,1500,-0.25720733404159546,0.35028553009033203,-0.07998184114694595,0.5821219086647034,0.08805207908153534,-12.199541091918945,21.134571075439453,86.65241241455078,-41.29,12.53,337.49,1.079187035560608,33.71
886761.4273017601,1523,1.3926910161972046,1500,1612,1500,-0.018023161217570305,0.34596914052963257,-0.11830366402864456,0.6310440301895142,0.13766592741012573,-11.249279022216797,21.109485626220703,87.36051940917969,-41.57,13.47,336.09,1.0539093017578125,33.71
886861.4273017601,1523,1.217559814453125,1500,1612,1500,0.09580926597118378,0.3652355670928955,-0.19361956417560577,0.9758521914482117,0.19469425082206726,-12.672078132629395,20.536685943603516,87.55218505859375,-41.96,14.59,333.56,1.0083892345428467,33.71
886961.4273017601,1523,1.2664031982421875,1500,1612,1500,0.02691645175218582,0.2946067452430725,-0.28757473826408386,0.8720380663871765,0.07404723763465881,-10.48066234588623,20.20924949645996,88.07128143310547,-42.59,14.89,331.63,1.0307464599609375,33.71
887061.4273017601,1523,1.2958602905273438,1500,1612,1500,0.04807950556278229,0.3358820378780365,-0.2887456715106964,0.8352424502372742,0.4496956467628479,-10.040872573852539,20.394258499145508,88.48123931884766,-42.91,15.18,328.59,0.9468063116073608,33.71
887161.4273017601,1523,1.296716332435608,1500,1612,1500,-0.03261857107281685,0.3309486210346222,-0.3778149485588074,0.8886236548423767,0.502610445022583,-10.216721534729004,20.109914779663086,89.13343811035156,-43.62,15.21,326.35,0.9269164800643921,33.71
887261.4273017601,1523,1.2220412492752075,1500,1612,1500,0.08104969561100006,0.334304541349411,-0.43129029870033264,1.0533064603805542,0.33485138416290283,-11.960099220275879,20.116802215576172,89.26654052734375,-44.33,15.02,322.49,0.9389007687568665,33.71
887361.4273017601,1523,1.2935439348220825,1500,1612,1500,-0.05989067628979683,0.30929145216941833,-0.4842943251132965,0.8920449018478394,0.2676132619380951,-10.039008140563965,19.446834564208984,89.60195922851562,-45.09,14.61,319.87,0.9330093264579773,33.71
887461.4273017601,1523,1.408451795578003,1500,1612,1500,-0.3392578363418579,0.3792206048965454,-0.5347222685813904,0.6011790037155151,-0.5284027457237244,-8.405542373657227,20.011716842651367,89.82290649414062,-47.81,13.84,315.46,1.2193725109100342,33.71
887561.4273017601,1523,1.2841278314590454,1500,1612,1500,-0.26792657375335693,0.37623193860054016,-0.3939203917980194,0.7994142770767212,-0.5509290099143982,-10.70553970336914,20.18092918395996,89.97730255126953,-50.01,13.61,312.72,1.139007568359375,33.71
887661.4273017601,1523,1.2172073125839233,1500,1612,1500,-0.20465214550495148,0.31626224517822266,-0.2942716181278229,0.7854256629943848,-0.9733439683914185,-13.949671745300293,20.066621780395508,89.9373779296875,-52.1,13.42,309.42,1.2147903442382812,33.71
887761.4273017601,1523,1.2921844720840454,1500,1612,1500,-0.3092893660068512,0.3106814920902252,-0.21336059272289276,0.6125500202178955,-0.33226242661476135,-11.687830924987793,20.424121856689453,90.07579803466797,-53.97,13.46,307.59,1.144999623298645,33.71
887861.4273017601,1523,1.1801971197128296,1500,1612,1500,-0.05365819111466408,0.36061155796051025,-0.18074525892734528,0.93511563539505,-0.08786845207214355,-14.688726425170898,20.85599708557129,90.531005859375,-55.39,13.9,304.82,1.078129529953003,33.71
887961.4273017601,1523,1.2203795909881592,1500,1612,1500,0.03807917982339859,0.3116605281829834,-0.23585918545722961,0.8055638074874878,0.5404513478279114,-13.289483070373535,21.152019500732422,90.82383728027344,-55.92,13.94,303,0.9435333013534546,33.71
888061.4273017601,1523,1.2635329961776733,1500,1612,1500,0.23911261558532715,0.3292742967605591,-0.33205074071884155,0.7395333647727966,0.6110050678253174,-12.197749137878418,20.784147262573242,91.21781921386719,-55.55,13.59,299.83,0.9164932370185852,33.7
888161.4273017601,1523,1.2465133666992188,1500,1612,1500,0.25740644335746765,0.3255334198474884,-0.43674716353416443,0.8429737091064453,0.5287511944770813,-12.648032188415527,20.567153930664062,91.02880859375,-55.09,13.01,297.4,0.9188598394393921,33.71
888261.4273017601,1523,1.279948353767395,1500,1612,1500,0.17243613302707672,0.28743577003479004,-0.5129226446151733,0.9764440655708313,0.4056830108165741,-11.847878456115723,20.49018096923828,91.27105712890625,-54.49,11.55,293.6,0.9098464846611023,33.71
888361.4273017601,1523,1.2821639776229858,1500,1612,1500,0.4270765781402588,0.2992916405200958,-0.5344096422195435,0.9692468643188477,0.7376844882965088,-10.389688491821289,20.44680404663086,91.84606170654297,-53.36,10.44,291.03,0.8947906494140625,33.71
888461.4273017601,1523,1.247721791267395,1500,1612,1500,0.27825793623924255,0.30919528007507324,-0.590455949306488,1.143536925315857,0.35114696621894836,-11.831649780273438,19.65538215637207,91.70230865478516,-51.74,8.78,286.83,0.9048614501953125,33.7
888561.4273017601,1523,1.2319107055664062,1500,1612,1500,-0.0029273726977407932,0.2977216839790344,-0.6138433814048767,1.083909511566162,0.21081997454166412,-11.359723091125488,19.49679946899414,91.65705108642578,-52.27,7.51,283.98,0.9167953133583069,33.7
888661.4273017601,1523,1.1656447649002075,1500,1612,1500,-0.24812254309654236,0.2978076934814453,-0.6326773166656494,1.2259907722473145,-0.1078045591711998,-14.041659355163574,20.119647979736328,91.43077850341797,-53.97,5.42,279.62,0.9624664187431335,33.7
888761.4273017601,1523,1.279595971107483,1500,1612,1500,-0.18821921944618225,0.2851659059524536,-0.5914745330810547,1.0004332065582275,0.19354195892810822,-10.558631896972656,20.013126373291016,91.72360229492188,-55.42,3.97,276.95,0.9644805788993835,33.7
888861.4273017601,1523,1.2418304681777954,1500,1612,1500,-0.1562490016222,0.3585420250892639,-0.5425674319267273,0.9034377336502075,-0.05587918683886528,-13.192588806152344,20.568126678466797,91.74224090576172,-56.61,2.27,272.83,0.9813995361328125,33.7
888961.4273017601,1523,1.2361907958984375,1500,1612,1500,-0.027157945558428764,0.31182822585105896,-0.5058006644248962,0.7504982352256775,0.25255775451660156,-12.713770866394043,20.751632690429688,91.65971374511719,-57.05,1.15,270.25,0.9898589849472046,33.7
889061.4273017601,1523,1.2729995250701904,1500,1612,1500,-0.10176524519920349,0.38628074526786804,-0.5067132115364075,0.8375719785690308,-0.05090411752462387,-11.738719940185547,20.569557189941406,91.526611328125,-57.43,-0.27,266.3,0.9925780892372131,33.7
889161.4273017601,1523,1.23060142993927,1500,1612,1500,-0.16991843283176422,0.367168664932251,-0.49926477670669556,0.9306509494781494,-0.24540098011493683,-12.911100387573242,20.063852310180664,91.21781921386719,-58.13,-1.22,263.6,1.0371414422988892,33.7
889261.4273017601,1523,1.249786376953125,1500,1612,1500,-0.10810250043869019,0.3407922089099884,-0.44776013493537903,0.8711984157562256,-0.3595259487628937,-12.288043975830078,19.973752975463867,91.07939147949219,-58.99,-2.56,259.94,1.053959608078003,33.7
889361.4273017601,1523,1.2488800287246704,1500,1612,1500,-0.17239883542060852,0.354742169380188,-0.4227014183998108,0.8697597980499268,-0.4635292887687683,-12.790777206420898,19.963743209838867,90.90635681152344,-59.49,-3.36,257.59,1.0935379266738892,33.7
889461.4273017601,1523,1.2780349254608154,1500,1612,1500,-0.27095654606819153,0.3676508069038391,-0.3702029883861542,0.776604950428009,0.05413513630628586,-10.497044563293457,19.74570083618164,90.83980560302734,-61.2,-4.35,254.17,1.0386016368865967,33.7
889561.4273017601,1523,1.3440994024276733,1500,1612,1500,-0.06751962751150131,0.4036605656147003,-0.35758617520332336,0.5295891165733337,-0.04689251631498337,-9.186254501342773,20.783710479736328,91.14328002929688,-61.57,-4.83,251.8,1.0432342290878296,33.7
889661.4273017601,1523,1.3614715337753296,1500,1612,1500,-0.09755183011293411,0.4456409513950348,-0.35155585408210754,0.4380141496658325,-0.2499101459980011,-9.930434226989746,21.120656967163086,90.8797378540039,-61.81,-5.47,248.02,1.0993789434432983,33.7
889761.4273017601,1523,1.348026990890503,1500,1612,1500,-0.15076391398906708,0.41191402077674866,-0.3039645254611969,0.3456168472766876,-0.16273155808448792,-10.87360668182373,21.751863479614258,90.07846069335938,-62.37,-5.73,245.55,1.095300316810608,33.7
889861.4273017601,1523,1.348077416419983,1472,1604,1500,-0.20686449110507965,0.4598388969898224,-0.29034265875816345,0.18703709542751312,-0.03062557242810726,-10.75741195678711,22.29456329345703,89.92938995361328,-63.37,-6.06,242.02,1.1140823364257812,33.7
889961.4273017601,1523,1.2579940557479858,1451,1604,1500,0.02117009088397026,0.45739156007766724,-0.26185157895088196,0.24846671521663666,0.3104549050331116,-13.007343292236328,22.66434097290039,89.51676940917969,-63.54,-6.13,239.64,1.0228408575057983,33.7
890061.4273017601,1523,1.256433129310608,1427,1604,1500,0.24922722578048706,0.4064100980758667,-0.33318760991096497,0.14248254895210266,0.14594149589538574,-14.266398429870605,23.083721160888672,88.93112182617188,-62.03,-6.62,236.1,1.0275237560272217,33.7
890161.4273017601,1523,1.3069884777069092,1417,1604,1499,0.3892260491847992,0.37787529826164246,-0.41532692313194275,0.12652792036533356,0.30880945920944214,-13.037437438964844,23.312786102294922,88.36410522460938,-60.3,-7.29,233.69,1.018157958984375,33.7
890261.4273017601,1523,1.2918822765350342,1363,1604,1497,0.8309946060180664,0.3577251434326172,-0.4694938659667969,0.04404251277446747,0.46258413791656494,-13.40855598449707,23.487821578979492,88.0872573852539,-55.11,-8.56,229.88,0.960955798625946,33.7
890361.4273017601,1523,1.2630294561386108,1351,1604,1497,1.0010766983032227,0.31974726915359497,-0.5811234712600708,0.1629915088415146,0.10337309539318085,-15.416449546813965,23.536924362182617,87.54153442382812,-50.51,-9.61,227.1,0.9905639290809631,33.69
890461.4273017601,1523,1.285436987876892,1306,1604,1496,1.0043195486068726,0.2895672023296356,-0.6506949067115784,-0.22092613577842712,-0.4277680814266205,-15.395061492919922,24.004413604736328,87.21942901611328,-42.94,-11.34,222.58,1.061059594154358,33.7
890561.4273017601,1523,1.3183685541152954,1299,1604,1496,0.8583799600601196,0.2586076855659485,-0.6612114906311035,-0.2302386462688446,-1.1736005544662476,-16.742645263671875,24.09432029724121,86.00021362304688,-38.33,-12.31,219.35,1.1596022844314575,33.7
890661.4273017601,1523,1.466711401939392,1289,1604,1488,1.0431208610534668,0.1915968805551529,-0.44876381754875183,-0.7146214842796326,-2.2000205516815186,-11.162445068359375,24.645761489868164,86.40484619140625,-30.8,-13.2,215.45,1.3708373308181763,33.7
890761.4273017601,1523,1.3499404191970825,1295,1604,1487,1.162081241607666,0.28993815183639526,-0.13550695776939392,-0.3820028305053711,-1.49589204788208,-15.666462898254395,24.208288192749023,85.49176025390625,-25.3,-12.51,214,1.296665906906128,33.69
890861.4273017601,1523,1.3777862787246704,1341,1604,1480,1.253519892692566,0.20568209886550903,-0.045573897659778595,-0.4365125298500061,-1.4532305002212524,-14.619318008422852,23.666126251220703,85.04720306396484,-16.5,-11.22,213,1.3189224004745483,33.69
890961.4273017601,1523,1.338963270187378,1373,1604,1474,1.3871322870254517,0.24477699398994446,0.023270871490240097,-0.47602227330207825,-1.1446378231048584,-15.59117603302002,24.412948608398438,84.29118347167969,-10.27,-10.16,212.8,1.2995864152908325,33.69
891061.4273017601,1523,1.3342803716659546,1435,1604,1470,0.6994283199310303,0.26595553755760193,0.0627022311091423,-0.47969889640808105,-1.2774804830551147,-15.219141960144043,24.4919376373291,83.95842742919922,-3.56,-8.39,213.03,1.2409240007400513,33.69
891161.4273017601,1523,1.2797973155975342,1472,1604,1468,0.7138118147850037,0.2637847363948822,0.06624291092157364,-0.3576255142688751,-0.695190966129303,-19.491344451904297,25.147846221923828,82.92821502685547,-0.08,-7.16,213.37,1.1331161260604858,33.69
891261.4273017601,1524,1.354069471359253,1500,1596,1437,0.26489654183387756,0.26751089096069336,0.03098842315375805,-0.6093721389770508,-0.8672101497650146,-16.310626983642578,25.379558563232422,82.6487045288086,2.99,-5.4,213.77,1.1568328142166138,33.69
891361.4273017601,1531,1.3516525030136108,1500,1596,1430,-0.0014791047433391213,0.33583295345306396,0.12771904468536377,-0.6698843836784363,-0.48775866627693176,-15.16751766204834,25.210491180419922,83.30622863769531,3.09,-4.01,214.33,1.1276779174804688,33.69
891461.4273017601,1525,1.2756179571151733,1499,1620,1441,0.038015518337488174,0.3290994465351105,0.20083731412887573,-0.5171152353286743,-0.05735472962260246,-15.38563346862793,25.106948852539062,82.82705688476562,3.03,-1.81,215.77,1.1166000366210938,33.69
891561.4273017601,1525,1.2469161748886108,1500,1636,1442,0.02944144979119301,0.3559782803058624,0.2018248587846756,-0.13458144664764404,0.3006255030632019,-16.80776023864746,24.44988441467285,82.4437255859375,3.14,-0.34,216.87,1.0119140148162842,33.69
891661.4273017601,1560,1.2827178239822388,1500,1660,1444,0.06233469396829605,0.29195860028266907,0.14010001718997955,0.180251345038414,-0.027753455564379692,-16.098445892333984,24.03849983215332,82.595458984375,3.88,1.65,218.2,1.022790551185608,33.69
891761.4273017601,1574,1.35150146484375,1500,1668,1443,-0.11212409287691116,0.2223391830921173,0.09824112802743912,0.20604567229747772,0.17737609148025513,-12.881903648376465,23.890527725219727,83.0080795288086,3.48,2.65,218.82,0.9948440194129944,33.69
891861.4273017601,1567,1.3509474992752075,1500,1668,1444,0.02564707212150097,0.2759779393672943,0.06359431147575378,0.3871258497238159,0.3485783636569977,-12.011462211608887,24.16377067565918,83.16780090332031,3.38,4.4,219.49,1.008036732673645,33.69
891961.4273017601,1566,1.2448517084121704,1500,1668,1444,0.28641819953918457,0.24182172119617462,0.06946057081222534,0.76368248462677,0.45579200983047485,-15.259655952453613,23.8983211517334,82.74720001220703,4.29,5.55,219.93,0.9853271245956421,33.69
892061.4273017601,1541,1.0833663940429688,1500,1668,1451,0.6935945153236389,0.1797725111246109,0.03214818239212036,1.154887080192566,0.29636064171791077,-18.422515869140625,22.264066696166992,82.57150268554688,6.95,6.84,220.33,0.9348220825195312,33.69
892161.4273017601,1534,1.1492797136306763,1500,1668,1454,0.2866406738758087,0.12434648722410202,-0.07471887022256851,0.9872892498970032,0.1892772912979126,-16.141714096069336,22.807373046875,82.55020904541016,8.5,7.48,220.21,0.9739471077919006,33.69
892261.4273017601,1536,1.3201812505722046,1500,1668,1462,0.1346878558397293,0.2186049222946167,-0.10108982771635056,0.6256342530250549,-0.09912773221731186,-12.594822883605957,22.979915618896484,83.3807601928711,9.55,8.88,219.72,1.082560658454895,33.69
892361.4273017601,1581,1.179844617843628,1500,1668,1473,0.16403120756149292,0.17345231771469116,-0.017586469650268555,1.3541107177734375,-0.7417819499969482,-16.496511459350586,21.552406311035156,82.81641387939453,9.83,9.95,219.71,1.1593505144119263,33.69
892461.4273017601,1641,1.313836693763733,1500,1668,1465,0.09806901216506958,-0.05860040709376335,0.044341523200273514,0.9647781252861023,-0.2221505492925644,-12.1707763671875,22.334646224975586,83.41536712646484,10.73,9.91,219.95,1.1400146484375,33.69
892561.4273017601,1656,1.4257736206054688,1500,1668,1466,0.1475415676832199,-0.1551174819469452,0.10630913078784943,0.7091584801673889,0.016638267785310745,-5.25096321105957,22.737886428833008,84.99662017822266,11.14,9.24,220.2,1.1509917974472046,33.69
892661.4273017601,1675,1.3714416027069092,1500,1644,1478,0.3305934965610504,-0.160879984498024,0.18472404778003693,0.812441349029541,-0.3483719527721405,-7.427074909210205,22.260282516479492,85.51838684082031,13.29,7.81,221.01,1.1584945917129517,33.69
892761.4273017601,1673,1.4123793840408325,1500,1620,1478,0.2810624837875366,-0.23798666894435883,0.2038441151380539,0.5286550521850586,-0.08943161368370056,-5.654338836669922,22.104278564453125,85.74998474121094,14.67,6.55,221.6,1.1401153802871704,33.69
892861.4273017601,1672,1.41993248462677,1500,1588,1477,0.22157889604568481,-0.20297309756278992,0.20777025818824768,0.5153958797454834,-0.16174836456775665,-5.678037643432617,21.702531814575195,86.00553894042969,16.56,4.76,222.52,1.152099609375,33.69
892961.4273017601,1680,1.4069411754608154,1500,1580,1474,0.27721700072288513,-0.2317192554473877,0.23566213250160217,0.21809881925582886,0.10741715133190155,-6.735599517822266,21.38011360168457,86.18921661376953,18.04,3.43,223.18,1.1180602312088013,33.69
893061.4273017601,1665,1.461676001548767,1500,1580,1472,0.17958964407444,-0.2765299677848816,0.19738252460956573,0.016193175688385963,-0.04376935586333275,-4.094968318939209,21.596569061279297,86.98783111572266,19.23,1.21,223.87,1.1200240850448608,33.69
893161.4273017601,1644,1.376074194908142,1500,1580,1470,0.05325490981340408,-0.20194296538829803,0.1944284439086914,0.046793382614851,-0.3985331952571869,-6.67623233795166,21.346752166748047,87.0916519165039,19.56,-0.05,224.31,1.1327133178710938,33.68
893261.4273017601,1591,1.5215972661972046,1507,1580,1476,-0.012497165240347385,-0.09935871511697769,0.22240793704986572,-0.1374775618314743,0.04813259840011597,-2.562839984893799,22.209110260009766,87.3818130493164,19.35,-1.36,225.37,1.0792373418807983,33.68
893361.4273017601,1570,1.4604171514511108,1533,1580,1483,-0.03821216896176338,0.20644286274909973,0.19613906741142273,-0.19744741916656494,0.10703607648611069,-3.959120750427246,21.956029891967773,87.51225280761719,18.94,-1.13,226.44,1.109399437904358,33.69
893461.4273017601,1547,1.3729019165039062,1582,1580,1485,-0.14319884777069092,0.3094760775566101,0.19165125489234924,-0.04557744413614273,-0.10054568201303482,-9.383913040161133,21.639808654785156,86.75623321533203,18.38,0.27,228.44,1.0830641984939575,33.69
893561.4273017601,1539,1.2566848993301392,1584,1580,1478,-0.30484190583229065,0.23863394558429718,0.17901711165905,0.2917182445526123,-0.25818029046058655,-11.843452453613281,21.081159591674805,86.14928436279297,17.05,1.17,229.66,1.0999327898025513,33.68
893661.4273017601,1531,1.2816604375839233,1589,1580,1485,-0.2717422842979431,0.18952782452106476,0.16830137372016907,0.32717615365982056,-0.48322468996047974,-12.003226280212402,20.803449630737305,86.29303741455078,15,2.16,231.27,1.1183120012283325,33.68
893761.4273017601,1532,1.1468627452850342,1584,1580,1490,-0.45006585121154785,0.16273346543312073,0.20993119478225708,0.5300030708312988,-1.0188626050949097,-15.446189880371094,20.80596160888672,85.72868347167969,13.37,2.74,232.38,1.2133804559707642,33.68
893861.4273017601,1534,1.231205701828003,1572,1580,1490,-0.5707456469535828,0.13864918053150177,0.25230836868286133,0.24092596769332886,-0.5329100489616394,-12.479307174682617,21.103105545043945,86.12000274658203,9.68,3.21,234.28,1.1701263189315796,33.68
893961.4273017601,1534,1.2583465576171875,1578,1580,1490,-0.8051488995552063,0.20074845850467682,0.23817528784275055,0.21423321962356567,-0.714905858039856,-13.290488243103027,21.26191520690918,86.3169937133789,6.66,3.82,235.58,1.1640838384628296,33.68
894061.4273017601,1548,1.1521499156951904,1579,1580,1495,-0.8487828373908997,0.1755276471376419,0.2191515415906906,0.5562425851821899,-0.1377907544374466,-14.105792045593262,21.159915924072266,86.12266540527344,0.66,5.09,237.3,1.1065292358398438,33.68
894161.4273017601,1557,1.2438446283340454,1573,1580,1496,-0.5678585767745972,0.1482812911272049,0.17771346867084503,0.24638701975345612,0.4257403612136841,-11.478425025939941,21.027860641479492,86.64176177978516,-2.49,5.77,238.24,1.0011383295059204,33.68
894261.4273017601,1546,1.2569366693496704,1574,1580,1496,-0.35566604137420654,0.1729273945093155,0.062107592821121216,0.22254933416843414,0.8619662523269653,-10.978153228759766,21.772274017333984,87.20345306396484,-5.26,6.96,238.94,0.923693835735321,33.68
894361.4273017601,1546,1.2536132335662842,1575,1580,1496,-0.29970529675483704,0.1968313753604889,-0.07932060211896896,0.3011172115802765,0.7521011233329773,-11.168949127197266,21.596460342407227,86.9478988647461,-6.71,7.85,238.72,0.9060195684432983,33.68
894461.4273017601,1547,1.2576919794082642,1575,1580,1496,-0.36229631304740906,0.20333483815193176,-0.19852414727210999,0.26781734824180603,0.31343814730644226,-11.495328903198242,21.052026748657227,87.35519409179688,-9.08,9.09,237.48,0.9310455322265625,33.68
894561.4273017601,1546,1.1205276250839233,1568,1580,1497,-0.2601597011089325,0.17305900156497955,-0.2325165718793869,0.5658915638923645,0.3201342821121216,-14.397982597351074,20.993017196655273,87.1741714477539,-10.63,9.79,236.35,0.9382964968681335,33.68
894661.4273017601,1589,1.1573867797851562,1503,1580,1497,-0.17792990803718567,0.11729839444160461,-0.2707936763763428,0.3885709345340729,-0.07165604829788208,-14.597719192504883,21.213397979736328,87.3818130493164,-12.84,10.34,234.42,1.0035552978515625,33.68
894761.4273017601,1628,1.157739281654358,1503,1580,1491,-0.2227054387331009,0.032455090433359146,-0.27528145909309387,0.4878183901309967,-0.4212229251861572,-12.975759506225586,20.91983985900879,87.59211730957031,-14.58,10.48,233.03,1.0391556024551392,33.68
894861.4273017601,1648,1.225012183189392,1501,1580,1486,-0.36983466148376465,-0.22002071142196655,-0.23357751965522766,0.5223144292831421,-0.7848941087722778,-11.698677062988281,20.293272018432617,87.79975128173828,-17.03,9.13,231.6,1.1364394426345825,33.68
894961.4273017601,1647,1.3494873046875,1500,1580,1485,-0.5136507749557495,-0.17511604726314545,-0.18324103951454163,0.29483407735824585,-0.13772548735141754,-6.6501383781433105,20.487884521484375,88.72081756591797,-19.6,7.92,231.05,1.1203765869140625,33.68
895061.4273017601,1629,1.3531631231307983,1500,1580,1485,-0.2982620298862457,-0.12593381106853485,-0.1011635810136795,0.38233616948127747,-0.40917670726776123,-8.038095474243164,20.088468551635742,88.74744415283203,-22,6.81,230.52,1.1619186401367188,33.68
895161.4273017601,1614,1.345005750656128,1500,1580,1472,-0.21930938959121704,-0.08913031965494156,-0.05949747562408447,0.44467437267303467,-0.2985313832759857,-7.782312870025635,19.646583557128906,89.12545013427734,-23.18,6.26,230.41,1.1720901727676392,33.68
895261.4273017601,1608,1.38770592212677,1500,1580,1466,-0.09210055321455002,-0.04584616795182228,-0.012043602764606476,0.46100327372550964,0.36311691999435425,-5.977913856506348,19.97112274169922,89.98262786865234,-24.11,5.86,230.41,1.0612106323242188,33.68
895361.4273017601,1605,1.3608672618865967,1500,1580,1466,0.02321038581430912,0.014292416162788868,-0.03478993847966194,0.57523512840271,0.3572852313518524,-7.082672595977783,19.561525344848633,90.0864486694336,-23.87,5.88,230.32,0.9737960696220398,33.67
895461.4273017601,1601,1.3578460216522217,1500,1580,1435,-0.012013740837574005,0.03003980778157711,-0.08807002753019333,0.46293312311172485,0.5856043696403503,-7.129734992980957,19.70934295654297,90.37394714355469,-23.85,5.79,229.82,0.9125152230262756,33.68
895561.4273017601,1590,1.335942029953003,1500,1580,1435,0.08899262547492981,0.09278039634227753,-0.14196929335594177,0.5223978161811829,1.0617318153381348,-7.915650367736816,19.70508575439453,90.10774230957031,-23.75,5.91,229.16,0.8635208010673523,33.68
895661.4273017601,1590,1.3521560430526733,1423,1580,1443,-0.004895958583801985,0.11200786381959915,-0.22643567621707916,0.5135877132415771,0.7789356708526611,-7.6871819496154785,20.13072967529297,90.2940902709961,-23.84,6.09,227.61,0.8559677004814148,33.68
895761.4273017601,1589,1.3458114862442017,1380,1580,1450,0.33493348956108093,0.09266670793294907,-0.2623538076877594,0.6678388714790344,0.9026389718055725,-8.98482894897461,19.953874588012695,90.41654205322266,-23.08,6.13,226.36,0.863873302936554,33.67
895861.4273017601,1582,1.2873001098632812,1325,1580,1449,0.910507082939148,0.02552173286676407,-0.3257961571216583,0.690136730670929,0.7089079022407532,-9.726362228393555,19.970245361328125,90.171630859375,-18.23,5.7,224.24,0.9016388058662415,33.67
